[{"reviews_count": "204", "neighborhood": "San Nicolas", "objectID": 101422, "postal_code": "1038", "food_type": "Hamburguesas", "city": "Buenos Aires", "payment_options": ["AMEX", "MasterCard", "Visa", "Nativa", "Diners", "Efectivo", "Naranja", "Argencard"], "area": "Capital Federal", "state": "CO", "stars_count": 4.2, "dining_style": "Casual", "phone_number": "43734976", "reserve_url": "https://www.pedidosya.com.ar/restaurantes/buenos-aires/konu-bar-menu?pycat=googlesearch&cmp=sem_res_AR_Buenos%20Aires_DSA&ag=Buenos%20Aires_DSA&kwd=&mt=b&net=g&dev=c&sitelink=&gclid=Cj0KEQjwgODIBRCEqfv60eq65ogBEiQA0ZC5-dvZujcOrLbfl6gIUFeGlYeKt-kpgnvsvLrH4TIKa84aAjVt8P8HAQ", "price": 2, "phone": "01143734976", "_geoloc": {"lat": -34.606338199999996, "lng": -58.38528499999995}, "address": "Tte. Gral. Juan Domingo Per\u00f3n 131", "price_range": "desde $45", "name": "Konu Bar", "country": "Argentina", "image_url": "https://scontent-eze1-1.xx.fbcdn.net/v/t1.0-9/1932456_1516769861888163_8212610846222058851_n.png?oh=01fd3b15d8a691f60bc40030a222e69e&oe=597DA752", "mobile_reserve_url": "https://www.pedidosya.com.ar/restaurantes/buenos-aires/konu-bar-menu?pycat=googlesearch&cmp=sem_res_AR_Buenos%20Aires_DSA&ag=Buenos%20Aires_DSA&kwd=&mt=b&net=g&dev=c&sitelink=&gclid=Cj0KEQjwgODIBRCEqfv60eq65ogBEiQA0ZC5-dvZujcOrLbfl6gIUFeGlYeKt-kpgnvsvLrH4TIKa84aAjVt8P8HAQ"}, {"reviews_count": "75", "neighborhood": "Monserrat", "objectID": 113494, "postal_code": "1002", "food_type": "Comidas", "city": "Buenos Aires", "payment_options": ["Efectivo"], "area": "Capital Federal", "state": "NC", "stars_count": 4.3, "dining_style": "Casual", "phone_number": "43424630", "reserve_url": "https://www.facebook.com/Siempre-Verde-Restorant-Vegetariano--249759478439346/", "price": 2, "phone": "01143424630", "_geoloc": {"lat": -34.60687686614309, "lng": -58.37223337093354}, "address": "Rivadavia 548", "price_range": "$50 a $100", "name": "Siempre Verde", "country": "Argentina", "image_url": "https://scontent-eze1-1.xx.fbcdn.net/v/t31.0-8/s960x960/335172_249761355105825_1173578397_o.jpg?oh=120c9976c78a9ae9a2ec600a9566bab0&oe=597B32A7", "mobile_reserve_url": "https://www.facebook.com/Siempre-Verde-Restorant-Vegetariano--249759478439346/"}, {"reviews_count": "161", "neighborhood": "San Nicolas", "objectID": 152470, "postal_code": "1005", "food_type": "Comidas", "city": "Buenos Aires", "payment_options": ["AMEX", "MasterCard", "Visa"], "area": "Capital Federal", "state": "Buenos Aires", "stars_count": 4.3, "dining_style": "Casual", "phone_number": "432700030", "reserve_url": "https://www.facebook.com/picnicbuenosaires/", "price": 2, "phone": "", "_geoloc": {"lat": -34.607521494803066, "lng": -58.373917798194896}, "address": "Florida 102", "price_range": "desde $100", "name": "Picnic", "country": "Argentina", "image_url": "https://scontent-eze1-1.xx.fbcdn.net/v/t1.0-9/560375_351584971592206_1444443775_n.jpg?oh=0bf91919f008f9303b5d5db52a229893&oe=59758A7A", "mobile_reserve_url": "https://www.facebook.com/picnicbuenosaires/"}, {"reviews_count": "159", "neighborhood": "San Nicolas", "objectID": 145693, "postal_code": "1086", "food_type": "Comidas", "city": "Buenos Aires", "payment_options": ["Efectivo"], "area": "Capital Federal", "state": "Buenos Aires", "stars_count": 4.5, "dining_style": "Elegante-Casual", "phone_number": "45631223", "reserve_url": "http://www.guiaoleo.com.ar/restaurantes/Picnic-10834", "price": 2, "phone": "", "_geoloc": {"lat": -34.6103030542326, "lng": -58.376460532341014}, "address": "Av. Hip\u00f3lito Yrigoyen 583", "price_range": "desde $100", "name": "Vita", "country": "Argentina", "image_url": "https://scontent-eze1-1.xx.fbcdn.net/v/t1.0-9/14854_899238363426870_2900074146296349540_n.png?oh=cf7859cac99cb9a8e38a8ae12512d1b4&oe=59A7C2CF", "mobile_reserve_url": "http://www.guiaoleo.com.ar/restaurantes/Picnic-10834"}, {"reviews_count": "332", "neighborhood": "Retiro", "objectID": 22588, "postal_code": "1026", "food_type": "Hamburguesas", "city": "Buenos Aires", "payment_options": ["AMEX", "Visa Electron", "MasterCard", "Visa", "Maestro"], "area": "Capital Federal", "state": "Buenos Aires", "stars_count": 4.5, "dining_style": "Casual", "phone_number": "45651234", "reserve_url": "http://www.greeneat.com.ar/", "price": 2, "phone": "", "_geoloc": {"lat": -34.60419233133299, "lng": -58.38285491863252}, "address": "Uruguay 703", "price_range": "$100 a $250", "name": "Green Eat", "country": "Argentina", "image_url": "https://scontent-eze1-1.xx.fbcdn.net/v/t1.0-9/11218990_1053796521319544_3454166543970391948_n.png?oh=0e733444cfd435beb719c8aa79ad2090&oe=597B54C9", "mobile_reserve_url": "http://www.greeneat.com.ar/"}, {"reviews_count": "55", "neighborhood": "San Telmo", "objectID": 76285, "postal_code": "1147", "food_type": "Comidas", "city": "Buenos Aires", "payment_options": ["Efectivo"], "area": "Capital Federal", "state": "TX", "stars_count": 3.9, "dining_style": "Casual", "phone_number": "20475827", "reserve_url": "https://www.facebook.com/ylavacachocha/", "price": 2, "phone": "20475827", "_geoloc": {"lat": -34.61530079670012, "lng": -58.38256524005891}, "address": "Av. San Juan 409", "price_range": "desde $50", "name": "Y La Vaca Chocha", "country": "Argentina", "image_url": "https://scontent-eze1-1.xx.fbcdn.net/v/t1.0-9/16711776_1229958317059885_8176895760647502685_n.jpg?oh=3d3c06214073748f04015f648b62002d&oe=597BEEF7", "mobile_reserve_url": "https://www.facebook.com/ylavacachocha/"}, {"reviews_count": "181", "neighborhood": "San Nicolas", "objectID": 68347, "postal_code": "10019", "food_type": "Comidas", "city": "Buenos Aires", "payment_options": ["Efectivo"], "area": "Capital Federal", "state": "Buenos Aires", "stars_count": 4.5, "dining_style": "Casual", "phone_number": "43745125", "reserve_url": "http://www.guiaoleo.com.ar/restaurantes/Sattva-3243", "price": 2, "phone": "43745125", "_geoloc": {"lat": -34.60592315976826, "lng": -58.37988303104402}, "address": "Montevideo 446", "price_range": "desde $50", "name": "Sattva", "country": "Argentina", "image_url": "https://scontent-eze1-1.xx.fbcdn.net/v/t1.0-9/16105942_1285526078191180_6307866544371271930_n.jpg?oh=fc72652ee87efc4ede9b4d89b3f4cedc&oe=59743565", "mobile_reserve_url": "http://www.guiaoleo.com.ar/restaurantes/Sattva-3243"}, {"reviews_count": "215", "neighborhood": "Almagro", "objectID": 145747, "postal_code": "1203", "food_type": "Comidas", "city": "Buenos Aires", "payment_options": ["Efectivo"], "area": "Capital Federal", "state": "Buenos Aires", "stars_count": 4.4, "dining_style": "Casual", "phone_number": "01150578038", "reserve_url": "https://www.facebook.com/Mono-Verde-Vegano-492476604145938/", "price": 3, "phone": "01150578038", "_geoloc": {"lat": -34.609985166442485, "lng": -58.40897963443757}, "address": "Av Rivadavia 3300", "price_range": "desde $50", "name": "Mono Verde Vegano", "country": "Argentina", "image_url": "https://scontent-eze1-1.xx.fbcdn.net/v/t1.0-9/11403201_877378802322381_5696888558743371024_n.jpg?oh=3d5363307733d83cf136416aade83c6a&oe=597720E8", "mobile_reserve_url": "https://www.facebook.com/Mono-Verde-Vegano-492476604145938/"}, {"reviews_count": "375", "neighborhood": "Almagro", "objectID": 49399, "postal_code": "1190", "food_type": "Pizzeria", "city": "Buenos Aires", "payment_options": ["Efectivo"], "area": "Capital Federal", "state": "Buenos Aires", "stars_count": 4.4, "dining_style": "Casual", "phone_number": "4865-8045", "reserve_url": "https://www.pedidosya.com.ar/restaurantes/buenos-aires/pizzeria-flipper-menu", "price": 2, "phone": "4865-8045", "_geoloc": {"lat": -34.60330924170176, "lng": -58.41258452335359}, "address": "Lavalle 3762", "price_range": "desde $150", "name": "Pizzeria Flipper", "country": "Argentina", "image_url": "https://scontent-eze1-1.xx.fbcdn.net/v/t1.0-9/302914_312078525487692_1655612312_n.jpg?oh=873ce429daacdf13b24e344a7558775a&oe=59BEF65E", "mobile_reserve_url": "https://www.facebook.com/pizzaflipper/"}, {"reviews_count": "375", "neighborhood": "Almagro", "objectID": 37393, "postal_code": "1186", "food_type": "Hamburguesas", "city": "Buenos Aires", "payment_options": ["Efectivo"], "area": "Capital Federal", "state": "Buenos Aires", "stars_count": 4.4, "dining_style": "Casual", "phone_number": "49612239", "reserve_url": "http://www.pumpkin.com.ar/", "price": 3, "phone": "49612239", "_geoloc": {"lat": -34.60088952799668, "lng": -58.42171476284028}, "address": "Jos\u00e9 Antonio Cabrera 3517", "price_range": "desde $115", "name": "Hamburguesas Veganas Pumpkin", "country": "Argentina", "image_url": "https://scontent-eze1-1.xx.fbcdn.net/v/t1.0-9/18342439_645418332324719_411580881719611324_n.jpg?oh=ba98aacc05966c04105dfba0409cca4d&oe=597F0972", "mobile_reserve_url": "http://www.pumpkin.com.ar/"}]